[
 {
   "Title": "青年路東門市場公有收費停車場(9015)",
   "Address": "臺南市中西區青年路近萬昌街路口南側",
   "Car": 14,
   "Moto": 0,
   "Money": "20元/時",
   "Lat": 22.991689,
   "Lon": 120.210337
 },
 {
   "Title": "延平郡王祠大埔街口路外停車場",
   "Address": "臺南市中西區開山路與大埔街路口西側",
   "Car": 4,
   "Moto": 0,
   "Money": "20元/時",
   "Lat": 22.987274,
   "Lon": 120.208698
 },
 {
   "Title": "客家文化會館路外停車場",
   "Address": "臺南市南區夏林路客家文化會館旁",
   "Car": 34,
   "Moto": 0,
   "Money": "20元/時",
   "Lat": 22.985834,
   "Lon": 120.194661
 },
 {
   "Title": "萬昌街公有停車場",
   "Address": "臺南市中西區萬昌街、青年路226巷6弄路口",
   "Car": 26,
   "Moto": 0,
   "Money": "20元/時",
   "Lat": 22.991089,
   "Lon": 120.210416
 },
 {
   "Title": "民生路臨時停車場(機25)",
   "Address": "臺南市中西區民生路二段400巷西側(原警察局拖吊場)",
   "Car": 106,
   "Moto": 58,
   "Money": "20元/時",
   "Lat": 22.99772,
   "Lon": 120.188265
 },
 {
   "Title": "青年路停E8路外停車場",
   "Address": "臺南市東區青年路近育樂街路口南側",
   "Car": 74,
   "Moto": 0,
   "Money": "20元/時",
   "Lat": 22.991371,
   "Lon": 120.213666
 },
 {
   "Title": "崇明路停E6路外停車場",
   "Address": "臺南市東區崇明路崇明國中南側",
   "Car": 89,
   "Moto": 0,
   "Money": "20元/時",
   "Lat": 22.968903,
   "Lon": 120.225593
 },
 {
   "Title": "德光公園停車場",
   "Address": "臺南市東區崇德一街德光公園東北側",
   "Car": 18,
   "Moto": 11,
   "Money": "20元/時",
   "Lat": 22.980212,
   "Lon": 120.219564
 },
 {
   "Title": "崇明五街公兒E37臨時路外停車場",
   "Address": "臺南市東區崇明路與崇明五街口西南側",
   "Car": 30,
   "Moto": 0,
   "Money": "20元/時",
   "Lat": 22.979917,
   "Lon": 120.217155
 },
 {
   "Title": "忠烈祠廣場停車場",
   "Address": "臺南市南區健康路1段忠烈祠旁",
   "Car": 47,
   "Moto": 0,
   "Money": "20元/時",
   "Lat": 22.980924,
   "Lon": 120.21034
 },
 {
   "Title": "臺南市立棒球場北側路外停車場",
   "Address": "臺南市南區健康路1段市立棒球場北側",
   "Car": 21,
   "Moto": 0,
   "Money": "20元/時",
   "Lat": 22.981212,
   "Lon": 120.205555
 },
 {
   "Title": "體育之心路外停車場",
   "Address": "臺南市南區南門路市立體育場西側",
   "Car": 109,
   "Moto": 266,
   "Money": "20元/時",
   "Lat": 22.97837,
   "Lon": 120.204934
 },
 {
   "Title": "水交社路外停車場",
   "Address": "臺南市南區南門路與興中街路口",
   "Car": 56,
   "Moto": 0,
   "Money": "20元/時",
   "Lat": 22.979491,
   "Lon": 120.203736
 },
 {
   "Title": "市立圖書館廣場停車場",
   "Address": "臺南市北區公園路市立圖書館前",
   "Car": 56,
   "Moto": 0,
   "Money": "20元/時",
   "Lat": 23.004306,
   "Lon": 120.211019
 },
 {
   "Title": "北園公兒23路外停車場",
   "Address": "臺南市北區北園街114巷",
   "Car": 108,
   "Moto": 0,
   "Money": "20元/時",
   "Lat": 23.013079,
   "Lon": 120.224648
 },
 {
   "Title": "小北商場路外停車場",
   "Address": "臺南市北區小北商場後方(育德路東側)",
   "Car": 120,
   "Moto": 0,
   "Money": "20元/時",
   "Lat": 23.008586,
   "Lon": 120.205071
 },
 {
   "Title": "勝安香草公園路外停車場",
   "Address": "臺南市北區開元路63巷勝安香草公園北側",
   "Car": 16,
   "Moto": 0,
   "Money": "20元/時",
   "Lat": 23.006637,
   "Lon": 120.215783
 },
 {
   "Title": "停2路外停車場",
   "Address": "臺南市安平區建平16街近中華西路南、北兩側",
   "Car": 160,
   "Moto": 0,
   "Money": "20元/時",
   "Lat": 22.996602,
   "Lon": 120.185584
 },
 {
   "Title": "林默娘紀念公園停車場",
   "Address": "臺南市安平區安億路林默娘公園旁",
   "Car": 185,
   "Moto": 227,
   "Money": "20元/時",
   "Lat": 22.9928133,
   "Lon": 120.15703
 },
 {
   "Title": "港濱歷史公園停車場",
   "Address": "臺南市安平區安億路與平豐路路口西北側",
   "Car": 52,
   "Moto": 0,
   "Money": "20元/時",
   "Lat": 22.994969,
   "Lon": 120.163416
 },
 {
   "Title": "億載公園停車場",
   "Address": "臺南市安平區永華路2段與光州路路口西南側",
   "Car": 101,
   "Moto": 102,
   "Money": "20元/時",
   "Lat": 22.991168,
   "Lon": 120.159479
 },
 {
   "Title": "永康區停三立體停車場",
   "Address": "臺南市永康區華興街77號",
   "Car": 279,
   "Moto": 0,
   "Money": "20元/時",
   "Lat": 23.000707,
   "Lon": 120.237698
 },
 {
   "Title": "仁德區仁德立體停車場、市一地下停車場",
   "Address": "臺南市仁德區正義一街41號",
   "Car": 283,
   "Moto": 74,
   "Money": "20元/時",
   "Lat": 22.972604,
   "Lon": 120.253466
 },
 {
   "Title": "新營區停六停車場",
   "Address": "臺南市新營區新營火車站西南側",
   "Car": 5,
   "Moto": 189,
   "Money": "小車20元/時 機車30元/次",
   "Lat": 23.306363,
   "Lon": 120.32273
 },
 {
   "Title": "新市國小地下停車場",
   "Address": "臺南市新市區中興路1號B1",
   "Car": 154,
   "Moto": 0,
   "Money": "20元/時",
   "Lat": 23.078349,
   "Lon": 120.295367
 },
 {
   "Title": "環河街臨時停車場",
   "Address": "臺南市中西區臺南市中西區環河街56號",
   "Car": 33,
   "Moto": 0,
   "Money": "20/時",
   "Lat": 22.9931583,
   "Lon": 120.1920625
 },
 {
   "Title": "西門路育賢停車場",
   "Address": "臺南市北區臺南市西門路4段341巷內",
   "Car": 26,
   "Moto": 0,
   "Money": "20/時",
   "Lat": 23.008515,
   "Lon": 120.2079953
 },
 {
   "Title": "大豐公園停車場",
   "Address": "臺南市北區和緯路與武聖路交叉口",
   "Car": 18,
   "Moto": 0,
   "Money": "20元/時",
   "Lat": 23.0074151,
   "Lon": 120.1874729
 },
 {
   "Title": "大興公園停車場",
   "Address": "臺南市北區大興街(好市多正後方)",
   "Car": 150,
   "Moto": 0,
   "Money": "20元/時",
   "Lat": 23.0117569,
   "Lon": 120.1928463
 },
 {
   "Title": "水景公園路外停車場",
   "Address": "臺南市安平區安北路水景公園旁",
   "Car": 134,
   "Moto": 0,
   "Money": "20元/時",
   "Lat": 22.999175,
   "Lon": 120.157886
 },
 {
   "Title": "崇善路龍山停車場",
   "Address": "臺南市東區崇善路51號",
   "Car": 144,
   "Moto": 23,
   "Money": "20元/時",
   "Lat": 22.982593,
   "Lon": 120.221534
 },
 {
   "Title": "東光路地下停車場",
   "Address": "臺南市東區東光路1段76號",
   "Car": 231,
   "Moto": 0,
   "Money": "20元/時",
   "Lat": 22.992491,
   "Lon": 120.231296
 },
 {
   "Title": "海安公6停車場",
   "Address": "臺南市北區台南市中西區海安路與公園南路口",
   "Car": 182,
   "Moto": 0,
   "Money": "20元/時",
   "Lat": 23.002824,
   "Lon": 120.200547
 },
 {
   "Title": "南瀛綠都心公園地下停車場",
   "Address": "臺南市新營區臺南市新營區民權里中正路23-1號",
   "Car": 296,
   "Moto": 0,
   "Money": "收費方式以小時為計費單位，停車費率每小時收費新台幣20元整，其停車時數未滿一小時者，以一小時計算收費。停車時數逾一小時以上，其超過之不滿一小時部分，如不逾三十分鐘者，以半小時計算；如逾三十分鐘者，仍以一小時計算收費。當日當次最高收費新台幣120元整。",
   "Lat": 23.3112479,
   "Lon": 120.315614
 }
]