[
 {
   "Title": "湖美街60巷臨時免費公有停車場",
   "Address": "臺南市中西區湖美街60巷(西湖社區活動中心旁)",
   "Car": 39,
   "Moto": 30,
   "Money": "",
   "Lat": 23.001348,
   "Lon": 120.180463
 },
 {
   "Title": "裕平路公有停車場(廣停E2)",
   "Address": "臺南市東區裕平路、裕和二街口(虎尾寮公有零售市場旁)",
   "Car": 52,
   "Moto": 0,
   "Money": "",
   "Lat": 22.985099,
   "Lon": 120.240635
 },
 {
   "Title": "精忠三村臨時停車場",
   "Address": "臺南市東區中華東路一段(夢時代對面)",
   "Car": 208,
   "Moto": 0,
   "Money": "",
   "Lat": 22.992259,
   "Lon": 120.234134
 },
 {
   "Title": "大林路111巷公有停車場(停11)",
   "Address": "臺南市南區大林路111巷、大同路2段482巷72弄中間",
   "Car": 36,
   "Moto": 0,
   "Money": "",
   "Lat": 22.974261,
   "Lon": 120.212021
 },
 {
   "Title": "竹溪街公有停車場(停10)",
   "Address": "臺南市南區竹溪街、健康路一段133巷51弄口(何必館大樓旁)",
   "Car": 25,
   "Moto": 0,
   "Money": "",
   "Lat": 22.979404,
   "Lon": 120.210122
 },
 {
   "Title": "安平港鯤鯓站臨時免費公有停車場",
   "Address": "臺南市南區安平港聯外道路(四鯤鯓碼頭管制站前)",
   "Car": 89,
   "Moto": 13,
   "Money": "",
   "Lat": 22.966607,
   "Lon": 120.165861
 },
 {
   "Title": "黃金海岸停車場",
   "Address": "臺南市南區西濱公路182.5公里處(黃金海岸旁)",
   "Car": 343,
   "Moto": 0,
   "Money": "",
   "Lat": 22.935294,
   "Lon": 120.176096
 },
 {
   "Title": "舉喜堂路外停車場(廣停S7)",
   "Address": "臺南市南區明興路1087巷",
   "Car": 23,
   "Moto": 0,
   "Money": "",
   "Lat": 22.929762,
   "Lon": 120.186599
 },
 {
   "Title": "公園路兵配場臨時路外公有停車場",
   "Address": "臺南市北區公園路(兵工配件場)",
   "Car": 414,
   "Moto": 800,
   "Money": "",
   "Lat": 23.001733,
   "Lon": 120.208858
 },
 {
   "Title": "北成路38巷口臨時免費公有停車場",
   "Address": "臺南市北區北成路、北成路38巷口(北成基督教會旁)",
   "Car": 37,
   "Moto": 0,
   "Money": "",
   "Lat": 23.018801,
   "Lon": 120.210622
 },
 {
   "Title": "成功里福安公園臨時免費公有停車場",
   "Address": "臺南市北區北成路、北成路186巷、372巷間",
   "Car": 19,
   "Moto": 36,
   "Money": "",
   "Lat": 23.020956,
   "Lon": 120.207658
 },
 {
   "Title": "賢北街臨時免費公有停車場",
   "Address": "臺南市北區大興街、賢北街口",
   "Car": 74,
   "Moto": 0,
   "Money": "",
   "Lat": 23.009077,
   "Lon": 120.182972
 },
 {
   "Title": "北成路，停N15",
   "Address": "臺南市北區北成路與北安路一段262巷口",
   "Car": 18,
   "Moto": 0,
   "Money": "",
   "Lat": 23.020163,
   "Lon": 120.207459
 },
 {
   "Title": "文賢路365巷口臨時免費公有停車場",
   "Address": "臺南市北區文賢路365巷、文賢路365巷18弄口",
   "Car": 18,
   "Moto": 0,
   "Money": "",
   "Lat": 23.007993,
   "Lon": 120.193168
 },
 {
   "Title": "成德停四免費公有停車場",
   "Address": "臺南市北區海安路3段388巷、立賢路1段650巷口",
   "Car": 56,
   "Moto": 0,
   "Money": "",
   "Lat": 23.008784,
   "Lon": 120.202745
 },
 {
   "Title": "大興四自辦重劃區公有停車場",
   "Address": "臺南市北區大興街76巷",
   "Car": 28,
   "Moto": 0,
   "Money": "",
   "Lat": 23.013149,
   "Lon": 120.191955
 },
 {
   "Title": "大道停6路外停車場",
   "Address": "臺南市北區北門路2段與和緯路1段路口西北側",
   "Car": 62,
   "Moto": 0,
   "Money": "",
   "Lat": 23.009483,
   "Lon": 120.215684
 },
 {
   "Title": "怡平停九免費臨時停車場",
   "Address": "臺南市安平區怡平路、永華6街口",
   "Car": 36,
   "Moto": 0,
   "Money": "",
   "Lat": 22.993143,
   "Lon": 120.176998
 },
 {
   "Title": "育平七街60巷公有停車場(停8)",
   "Address": "臺南市安平區育平七街60巷(慶平路安億停車場後方)",
   "Car": 50,
   "Moto": 0,
   "Money": "",
   "Lat": 22.997098,
   "Lon": 120.165344
 },
 {
   "Title": "建平八街臨時免費公有停車場",
   "Address": "臺南市安平區建平8街、建平9街與永華3街口(郵局西側)",
   "Car": 61,
   "Moto": 0,
   "Money": "",
   "Lat": 22.990774,
   "Lon": 120.181339
 },
 {
   "Title": "民權路四段停車場",
   "Address": "臺南市安平區民權路4段尾(抽水站旁)",
   "Car": 100,
   "Moto": 0,
   "Money": "",
   "Lat": 23.0024439,
   "Lon": 120.1657798
 },
 {
   "Title": "育平9街公有停車場(停10)",
   "Address": "臺南市安平區國平路、育平9街口",
   "Car": 47,
   "Moto": 0,
   "Money": "",
   "Lat": 22.995457,
   "Lon": 120.171169
 },
 {
   "Title": "郡平路口臨時路外公有停車場",
   "Address": "臺南市安平區郡平路(郡平路388號對面)",
   "Car": 70,
   "Moto": 39,
   "Money": "",
   "Lat": 22.98939,
   "Lon": 120.161398
 },
 {
   "Title": "文平路與建平五街免費臨時停車場",
   "Address": "臺南市安平區文平路、建平五街口",
   "Car": 66,
   "Moto": 0,
   "Money": "",
   "Lat": 22.98782,
   "Lon": 120.177861
 },
 {
   "Title": "國平自辦市地重劃區公有停車場",
   "Address": "臺南市安平區健康路3段、國平路口",
   "Car": 81,
   "Moto": 0,
   "Money": "",
   "Lat": 22.983464,
   "Lon": 120.171584
 },
 {
   "Title": "本原街3段，停1",
   "Address": "臺南市安南區本原街3段、智安三街口(本淵寮公有零售市場東側)",
   "Car": 40,
   "Moto": 0,
   "Money": "",
   "Lat": 23.053085,
   "Lon": 120.177632
 },
 {
   "Title": "安順里臨時免費公有停車場",
   "Address": "臺南市安南區總安街1段、育安街口",
   "Car": 58,
   "Moto": 21,
   "Money": "",
   "Lat": 23.05134,
   "Lon": 120.215377
 },
 {
   "Title": "安通自辦重劃區公有停車場",
   "Address": "臺南市安南區安和路1段263巷66號旁",
   "Car": 8,
   "Moto": 0,
   "Money": "",
   "Lat": 23.031608,
   "Lon": 120.210249
 },
 {
   "Title": "總安一自辦重劃區公有停車場",
   "Address": "臺南市安南區安和路四段533巷151弄46號安南區安和路四段351巷",
   "Car": 51,
   "Moto": 0,
   "Money": "",
   "Lat": 23.059597,
   "Lon": 120.215128
 },
 {
   "Title": "高鐵台南車站停一停車場",
   "Address": "臺南市歸仁區高發一路與高發二路中間段北邊(歸仁七路旁)",
   "Car": 78,
   "Moto": 133,
   "Money": "",
   "Lat": 22.927048,
   "Lon": 120.288496
 },
 {
   "Title": "高鐵台南車站停二停車場",
   "Address": "臺南市歸仁區高發一路與高發二路中間段南邊(歸仁十三路旁)",
   "Car": 87,
   "Moto": 88,
   "Money": "",
   "Lat": 22.924538,
   "Lon": 120.289762
 },
 {
   "Title": "高鐵台南車站停三停車場",
   "Address": "臺南市歸仁區站后一路(歸仁三路與歸仁五路中間)",
   "Car": 71,
   "Moto": 0,
   "Money": "",
   "Lat": 22.930103,
   "Lon": 120.285846
 },
 {
   "Title": "高鐵台南車站停四停車場",
   "Address": "臺南市歸仁區站后一路(歸仁五路與歸仁七路中間)北邊",
   "Car": 32,
   "Moto": 0,
   "Money": "",
   "Lat": 22.928866,
   "Lon": 120.286463
 },
 {
   "Title": "高鐵台南車站停五停車場",
   "Address": "臺南市歸仁區站后一路(歸仁五路與歸仁七路中間)南邊",
   "Car": 34,
   "Moto": 0,
   "Money": "",
   "Lat": 22.927999,
   "Lon": 120.286902
 },
 {
   "Title": "高鐵台南車站停六停車場",
   "Address": "臺南市歸仁區武當路(歸仁六路與歸仁八路中間)",
   "Car": 40,
   "Moto": 0,
   "Money": "",
   "Lat": 22.928414,
   "Lon": 120.282342
 },
 {
   "Title": "高鐵台南車站停七停車場",
   "Address": "臺南市歸仁區武當路(歸仁八路與歸仁十路中間)北邊",
   "Car": 34,
   "Moto": 0,
   "Money": "",
   "Lat": 22.9274,
   "Lon": 120.282909
 },
 {
   "Title": "高鐵台南車站停八停車場",
   "Address": "臺南市歸仁區武當路(歸仁八路與歸仁十路中間)南邊",
   "Car": 34,
   "Moto": 0,
   "Money": "",
   "Lat": 22.926511,
   "Lon": 120.283375
 },
 {
   "Title": "高鐵台南車站停九停車場",
   "Address": "臺南市歸仁區高鐵八路與高鐵六路口",
   "Car": 81,
   "Moto": 86,
   "Money": "",
   "Lat": 22.924441,
   "Lon": 120.280069
 },
 {
   "Title": "新化區廣停二地下停車場",
   "Address": "臺南市新化區中正路498號",
   "Car": 53,
   "Moto": 0,
   "Money": "",
   "Lat": 23.038381,
   "Lon": 120.307308
 },
 {
   "Title": "楠西區停二立體停車場",
   "Address": "臺南市楠西區民生路12號",
   "Car": 13,
   "Moto": 0,
   "Money": "",
   "Lat": 23.17657,
   "Lon": 120.48596
 },
 {
   "Title": "南化區玉山停車場",
   "Address": "臺南市南化區南化水庫下方「源之旅公園」",
   "Car": 230,
   "Moto": 0,
   "Money": "",
   "Lat": 23.091827,
   "Lon": 120.533993
 },
 {
   "Title": "麻豆區市五地下停車場(零售市場)",
   "Address": "臺南市麻豆區中正路80-33號",
   "Car": 90,
   "Moto": 0,
   "Money": "",
   "Lat": 23.185615,
   "Lon": 120.249665
 },
 {
   "Title": "麻豆區機三地下停車場",
   "Address": "臺南市麻豆區興南路16號",
   "Car": 22,
   "Moto": 0,
   "Money": "",
   "Lat": 23.183046,
   "Lon": 120.248751
 },
 {
   "Title": "麻豆區公所公共停車場",
   "Address": "臺南市麻豆區忠孝路250號",
   "Car": 106,
   "Moto": 73,
   "Money": "",
   "Lat": 23.185018,
   "Lon": 120.257946
 },
 {
   "Title": "將軍區公一停車場",
   "Address": "臺南市將軍區忠興里180-50號，文康中心、圖書館旁(飛砂崙公園)",
   "Car": 52,
   "Moto": 26,
   "Money": "",
   "Lat": 23.200988,
   "Lon": 120.160568
 },
 {
   "Title": "新營區東興路公有停車場",
   "Address": "臺南市新營區東興路、東興八街(衛生局旁)",
   "Car": 62,
   "Moto": 9,
   "Money": "",
   "Lat": 23.316108,
   "Lon": 120.322873
 },
 {
   "Title": "後壁區公所停車場",
   "Address": "臺南市後壁區公所後方",
   "Car": 13,
   "Moto": 0,
   "Money": "",
   "Lat": 23.366355,
   "Lon": 120.362119
 },
 {
   "Title": "白河區停三停車場",
   "Address": "臺南市白河區新興路與光華路口",
   "Car": 61,
   "Moto": 0,
   "Money": "",
   "Lat": 23.352304,
   "Lon": 120.41977
 },
 {
   "Title": "東山區停二停車場",
   "Address": "臺南市東山區龍鳳街與新東路口",
   "Car": 92,
   "Moto": 15,
   "Money": "",
   "Lat": 23.322393,
   "Lon": 120.401742
 },
 {
   "Title": "鹽水區停三停車場",
   "Address": "臺南市鹽水區治水路268巷(鹽水區農會與衛生所交接處)",
   "Car": 29,
   "Moto": 0,
   "Money": "",
   "Lat": 23.320069,
   "Lon": 120.2653
 },
 {
   "Title": "大內區西拉雅親子公園廣場停車場",
   "Address": "臺南市大內區西拉雅親子公園內(台84頭社交流道旁)",
   "Car": 118,
   "Moto": 10,
   "Money": "",
   "Lat": 23.142867,
   "Lon": 120.370378
 },
 {
   "Title": "台鐵南科車站西側停車場",
   "Address": "臺南市新市區台鐵南科站前站",
   "Car": 23,
   "Moto": 310,
   "Money": "",
   "Lat": 23.107715,
   "Lon": 120.301043
 },
 {
   "Title": "台鐵南科車站東側停車場",
   "Address": "臺南市新市區台鐵南科站前站",
   "Car": 17,
   "Moto": 88,
   "Money": "",
   "Lat": 23.107825,
   "Lon": 120.30278
 },
 {
   "Title": "南科特定區LM陽光電城",
   "Address": "臺南市新市區龍目井路(陽光大道與陽光南一路中間)北邊",
   "Car": 97,
   "Moto": 74,
   "Money": "",
   "Lat": 23.109766,
   "Lon": 120.306521
 },
 {
   "Title": "新市區停1停車場",
   "Address": "臺南市新市區新市區民生路、富中街口西側",
   "Car": 127,
   "Moto": 0,
   "Money": "",
   "Lat": 23.079798,
   "Lon": 120.288098
 },
 {
   "Title": "新市區停2停車場",
   "Address": "臺南市新市區新市區民生路62巷附近",
   "Car": 173,
   "Moto": 0,
   "Money": "",
   "Lat": 23.080636,
   "Lon": 120.289337
 },
 {
   "Title": "臺灣歷史博物館西北側停車場(廣停AN11-1)",
   "Address": "臺南市安南區館安路與館安二路交叉口",
   "Car": 168,
   "Moto": 70,
   "Money": "",
   "Lat": 23.0639,
   "Lon": 120.228596
 },
 {
   "Title": "鹽神白沙灘停車場",
   "Address": "臺南市安平區安平區安北路370巷口東側",
   "Car": 50,
   "Moto": 0,
   "Money": "",
   "Lat": 23.000893,
   "Lon": 120.153909
 },
 {
   "Title": "碧海碼頭停車場",
   "Address": "臺南市安平區安平區大平路、世平路口南側",
   "Car": 200,
   "Moto": 0,
   "Money": "",
   "Lat": 22.993128,
   "Lon": 120.151379
 },
 {
   "Title": "安億橋停車場",
   "Address": "臺南市安平區安億路與慶平路路口東南側",
   "Car": 408,
   "Moto": 274,
   "Money": "",
   "Lat": 22.997144,
   "Lon": 120.164272
 },
 {
   "Title": "樹屋停車場",
   "Address": "臺南市安平區安平區王城路、古堡街146巷口",
   "Car": 300,
   "Moto": 0,
   "Money": "",
   "Lat": 23.003599,
   "Lon": 120.157329
 },
 {
   "Title": "遊憩碼頭停車場",
   "Address": "臺南市安平區安平區運河路(觀景台、金城里活動中心旁)",
   "Car": 117,
   "Moto": 0,
   "Money": "",
   "Lat": 22.995521,
   "Lon": 120.15662
 }
]