[
 {
   "Title": "TIMES台南民生路停車場",
   "Address": "臺南市中西區民生路2段61號東南側空地",
   "Car": "21",
   "Moto": "0",
   "Money": "",
   "Lat": 22.995,
   "Lon": 120.197607
 },
 {
   "Title": "竑穗興業有限公司建業停車場",
   "Address": "臺南市中西區建業街58號",
   "Car": "50",
   "Moto": "0",
   "Money": "",
   "Lat": 22.987918,
   "Lon": 120.205482
 },
 {
   "Title": "郭綜合醫院立體停車場",
   "Address": "臺南市中西區民生路2段27號",
   "Car": "106",
   "Moto": "0",
   "Money": "",
   "Lat": 22.994758,
   "Lon": 120.19839
 },
 {
   "Title": "大億麗緻酒店收費停車場",
   "Address": "臺南市中西區西門路1段660號B3-B4",
   "Car": "201",
   "Moto": "0",
   "Money": "",
   "Lat": 22.988343,
   "Lon": 120.198262
 },
 {
   "Title": "新光三越百貨股份有限公司台南西門分公司停車場",
   "Address": "臺南市中西區西門路1段658號",
   "Car": "1515",
   "Moto": "0",
   "Money": "",
   "Lat": 22.987029,
   "Lon": 120.200107
 },
 {
   "Title": "文化中心廣場停車場",
   "Address": "臺南市東區文化中心外側廣場",
   "Car": "48",
   "Moto": "0",
   "Money": "20/時",
   "Lat": 22.974732,
   "Lon": 120.221648
 },
 {
   "Title": "娛樂城停車場",
   "Address": "臺南市中西區公園路60號",
   "Car": "84",
   "Moto": "0",
   "Money": "",
   "Lat": 22.995506,
   "Lon": 120.206413
 },
 {
   "Title": "赤崁樓停車場",
   "Address": "臺南市中西區民族路2段212號",
   "Car": "92",
   "Moto": "0",
   "Money": "",
   "Lat": 22.996785,
   "Lon": 120.202848
 },
 {
   "Title": "府城停車場",
   "Address": "臺南市中西區民權路2段118號地下1樓",
   "Car": "23",
   "Moto": "0",
   "Money": "",
   "Lat": 22.995699,
   "Lon": 120.203814
 },
 {
   "Title": "台灣聯通民生場",
   "Address": "臺南市中西區民生路2段279號",
   "Car": "132",
   "Moto": "0",
   "Money": "",
   "Lat": 22.996694,
   "Lon": 120.192082
 },
 {
   "Title": "民族停車場",
   "Address": "臺南市中西區民族路2段81號",
   "Car": "28",
   "Moto": "0",
   "Money": "",
   "Lat": 22.994521,
   "Lon": 120.209264
 },
 {
   "Title": "統穩停車場",
   "Address": "臺南市中西區康樂街96號",
   "Car": "51",
   "Moto": "19",
   "Money": "",
   "Lat": 22.992904,
   "Lon": 120.19455
 },
 {
   "Title": "永福停車場",
   "Address": "臺南市中西區永福路2段133號",
   "Car": "25",
   "Moto": "0",
   "Money": "",
   "Lat": 22.994232,
   "Lon": 120.201362
 },
 {
   "Title": "新光三越(股)機車停車場",
   "Address": "臺南市中西區北門路1段123巷56號",
   "Car": "0",
   "Moto": "127",
   "Money": "",
   "Lat": 22.994817,
   "Lon": 120.210246
 },
 {
   "Title": "台灣聯通台南忠義場",
   "Address": "臺南市中西區忠義路2段177號旁(觀音段718、726、727、728地號)",
   "Car": "13",
   "Moto": "0",
   "Money": "",
   "Lat": 22.996748,
   "Lon": 120.204157
 },
 {
   "Title": "衛生福利部臺南醫院收費停車場",
   "Address": "臺南市中西區中山路125號",
   "Car": "363",
   "Moto": "403",
   "Money": "",
   "Lat": 22.995136,
   "Lon": 120.20891
 },
 {
   "Title": "新光三越百貨股份有限公司台南中山分公司停車場",
   "Address": "臺南市中西區中山路162號",
   "Car": "272",
   "Moto": "0",
   "Money": "",
   "Lat": 22.994518,
   "Lon": 120.209903
 },
 {
   "Title": "嘟嘟房置地廣場站停車場",
   "Address": "臺南市中西區和意路1號B1~B3、B5(部分)、B6、B7(部分)",
   "Car": "808",
   "Moto": "1134",
   "Money": "",
   "Lat": 22.988378,
   "Lon": 120.199673
 },
 {
   "Title": "新光三越百貨股份有限公司台南西門分公司二館停車場",
   "Address": "臺南市中西區永福路1段189號地下4樓",
   "Car": "212",
   "Moto": "0",
   "Money": "",
   "Lat": 22.988378,
   "Lon": 120.199673
 },
 {
   "Title": "FOCUS停車場",
   "Address": "臺南市中西區中山路166號",
   "Car": "238",
   "Moto": "0",
   "Money": "",
   "Lat": 22.995827,
   "Lon": 120.21034
 },
 {
   "Title": "友愛停車場",
   "Address": "臺南市中西區永福段648、649地號",
   "Car": "7",
   "Moto": "0",
   "Money": "",
   "Lat": 22.994318,
   "Lon": 120.201459
 },
 {
   "Title": "鈦興停車場",
   "Address": "臺南市中西區健康路1段390巷地下室",
   "Car": "44",
   "Moto": "0",
   "Money": "",
   "Lat": 22.981965,
   "Lon": 120.198724
 },
 {
   "Title": "成功路停車場",
   "Address": "臺南市中西區忠義路2段237號旁(觀音段577、580、581、582地號)",
   "Car": "25",
   "Moto": "0",
   "Money": "",
   "Lat": 22.998212,
   "Lon": 120.204623
 },
 {
   "Title": "TIMES台南忠義成功停車場",
   "Address": "臺南市中西區忠義路2段236號北側空地（觀音段415、416地號）",
   "Car": "21",
   "Moto": "0",
   "Money": "",
   "Lat": 22.997686,
   "Lon": 120.204623
 },
 {
   "Title": "台南西門停車場",
   "Address": "臺南市中西區友愛街177號對面",
   "Car": "69",
   "Moto": "0",
   "Money": "",
   "Lat": 22.991848,
   "Lon": 120.197869
 },
 {
   "Title": "嘉年華購物中心停車場",
   "Address": "臺南市仁德區仁愛村仁愛1213號",
   "Car": "895",
   "Moto": "391",
   "Money": "",
   "Lat": 22.947817,
   "Lon": 120.219287
 },
 {
   "Title": "台糖仁德停車場",
   "Address": "臺南市仁德區仁愛村28鄰1126-11號",
   "Car": "268",
   "Moto": "0",
   "Money": "",
   "Lat": 22.946122,
   "Lon": 120.219752
 },
 {
   "Title": "泰豐停車場",
   "Address": "臺南市仁德區中洲里307-2號",
   "Car": "0",
   "Moto": "152",
   "Money": "",
   "Lat": 22.904892,
   "Lon": 120.252826
 },
 {
   "Title": "國賓停車場",
   "Address": "臺南市北區成功路2號地下3樓",
   "Car": "84",
   "Moto": "0",
   "Money": "",
   "Lat": 22.998143,
   "Lon": 120.21147
 },
 {
   "Title": "竑穗興業有限公司開元停車場",
   "Address": "臺南市北區開元路181號",
   "Car": "99",
   "Moto": "0",
   "Money": "",
   "Lat": 23.007221,
   "Lon": 120.219127
 },
 {
   "Title": "成功大學醫學中心附屬停車場",
   "Address": "臺南市中西區勝利路138號",
   "Car": "56",
   "Moto": "81",
   "Money": "",
   "Lat": 23.002181,
   "Lon": 120.218977
 },
 {
   "Title": "成大醫院汽機車停車場",
   "Address": "臺南市北區小東路35號",
   "Car": "433",
   "Moto": "485",
   "Money": "",
   "Lat": 23.001177,
   "Lon": 120.21701
 },
 {
   "Title": "見橋停車場",
   "Address": "臺南市永康區中華路870號旁空地",
   "Car": "0",
   "Moto": "91",
   "Money": "",
   "Lat": 23.021339,
   "Lon": 120.22181
 },
 {
   "Title": "奇美醫療財團法人奇美醫院停車場",
   "Address": "臺南市永康區頂南段598~602、604、607-1、607-2、608、610~615、616-1、617-1、618~620、798、799、802~805地號等26筆土地(中正南路52巷)",
   "Car": "231",
   "Moto": "861",
   "Money": "",
   "Lat": 23.020665,
   "Lon": 120.221036
 },
 {
   "Title": "奇美醫院來賓第三停車場",
   "Address": "臺南市永康區中正南路52巷68弄內",
   "Car": "152",
   "Moto": "0",
   "Money": "",
   "Lat": 23.019841,
   "Lon": 120.218857
 },
 {
   "Title": "品億商行停車場",
   "Address": "臺南市永康區永和段55地號土地(忠孝路與中山南路316巷路口東北側)",
   "Car": "0",
   "Moto": "0",
   "Money": "",
   "Lat": 23.015162,
   "Lon": 120.242686
 },
 {
   "Title": "永康市復國里停(七)停車場",
   "Address": "臺南市永康區復國一路150巷26號邊",
   "Car": "45",
   "Moto": "0",
   "Money": "",
   "Lat": 23.005257,
   "Lon": 120.247223
 },
 {
   "Title": "TIMES寶雅台南永康停車場",
   "Address": "臺南市永康區中華路106號",
   "Car": "13",
   "Moto": "0",
   "Money": "",
   "Lat": 23.002719,
   "Lon": 120.235188
 },
 {
   "Title": "和益停車場",
   "Address": "臺南市永康區永康車站旁",
   "Car": "0",
   "Moto": "76",
   "Money": "",
   "Lat": 23.038336,
   "Lon": 120.253523
 },
 {
   "Title": "凱得停車場",
   "Address": "臺南市永康區國光八街108號旁空地（大灣段6829、6832地號）",
   "Car": "20",
   "Moto": "0",
   "Money": "",
   "Lat": 23.011418,
   "Lon": 120.259606
 },
 {
   "Title": "永康區農會停車場",
   "Address": "臺南市永康區中正南路635號",
   "Car": "12",
   "Moto": "7",
   "Money": "",
   "Lat": 23.025496,
   "Lon": 120.255012
 },
 {
   "Title": "國立臺灣歷史博物館遊客停車場",
   "Address": "臺南市安南區長和路1段250號",
   "Car": "214",
   "Moto": "0",
   "Money": "",
   "Lat": 23.059165,
   "Lon": 120.231786
 },
 {
   "Title": "竤穗興業有限公司中醫安南停車場",
   "Address": "臺南市安南區長和路2段66號",
   "Car": "291",
   "Moto": "99",
   "Money": "",
   "Lat": 23.064159,
   "Lon": 120.223784
 },
 {
   "Title": "億載金城停車場",
   "Address": "臺南市安平區光州路3號",
   "Car": "40",
   "Moto": "0",
   "Money": "",
   "Lat": 22.988582,
   "Lon": 120.160021
 },
 {
   "Title": "義豐停車場",
   "Address": "臺南市安平區王城路(古堡段2000地號)",
   "Car": "101",
   "Moto": "0",
   "Money": "",
   "Lat": 23.00341,
   "Lon": 120.157302
 },
 {
   "Title": "古堡停車場",
   "Address": "臺南市安平區安平路185號",
   "Car": "39",
   "Moto": "0",
   "Money": "",
   "Lat": 23.0000868,
   "Lon": 120.1602432
 },
 {
   "Title": "大遠百停車場",
   "Address": "臺南市東區前鋒路210號",
   "Car": "562",
   "Moto": "0",
   "Money": "",
   "Lat": 22.996316,
   "Lon": 120.214833
 },
 {
   "Title": "東安臨時停車場",
   "Address": "臺南市東區東安路32號",
   "Car": "97",
   "Moto": "0",
   "Money": "",
   "Lat": 22.991875,
   "Lon": 120.226227
 },
 {
   "Title": "台灣聯通成大勝利場",
   "Address": "臺南市中西區勝利路116-118號B1-B3",
   "Car": "264",
   "Moto": "800",
   "Money": "",
   "Lat": 22.995221,
   "Lon": 120.218049
 },
 {
   "Title": "寶立成停車場",
   "Address": "臺南市東區中華東路2段22巷14弄西側",
   "Car": "4",
   "Moto": "0",
   "Money": "",
   "Lat": 22.987912,
   "Lon": 120.232912
 },
 {
   "Title": "德化堂停車場",
   "Address": "臺南市東區長榮路2段60號(東安段247及655地號)",
   "Car": "86",
   "Moto": "0",
   "Money": "",
   "Lat": 22.988114,
   "Lon": 120.219378
 },
 {
   "Title": "新樓醫院停車場",
   "Address": "臺南市東區東門路1段57號",
   "Car": "177",
   "Moto": "0",
   "Money": "",
   "Lat": 22.989099,
   "Lon": 120.212687
 },
 {
   "Title": "德安百貨本館停車場",
   "Address": "臺南市東區中華東路3段360號",
   "Car": "372",
   "Moto": "353",
   "Money": "",
   "Lat": 22.974119,
   "Lon": 120.220165
 },
 {
   "Title": "台糖長榮酒店（台南）第二停車場",
   "Address": "臺南市東區竹篙厝段4064地號土地(中華東路3段399巷)",
   "Car": "121",
   "Moto": "0",
   "Money": "",
   "Lat": 22.97309,
   "Lon": 120.220453
 },
 {
   "Title": "國賓影城股份有限公司台南中華分公司地下停車場",
   "Address": "臺南市東區中華東路1段66號地下1、2層",
   "Car": "96",
   "Moto": "230",
   "Money": "",
   "Lat": 22.99683,
   "Lon": 120.234029
 },
 {
   "Title": "國立成功大學大學路地下停車場",
   "Address": "臺南市東區大學路1號",
   "Car": "143",
   "Moto": "0",
   "Money": "",
   "Lat": 22.99661,
   "Lon": 120.216811
 },
 {
   "Title": "國聯停車場",
   "Address": "臺南市東區中華東路1段92號地下2樓",
   "Car": "116",
   "Moto": "0",
   "Money": "",
   "Lat": 22.994737,
   "Lon": 120.233848
 },
 {
   "Title": "松興停車場",
   "Address": "臺南市東區前鋒路149號左側",
   "Car": "0",
   "Moto": "158",
   "Money": "",
   "Lat": 23.003083,
   "Lon": 120.214889
 },
 {
   "Title": "南紡夢時代停車場",
   "Address": "臺南市東區中華東路1段366號",
   "Car": "897",
   "Moto": "1975",
   "Money": "",
   "Lat": 22.989882,
   "Lon": 120.233606
 },
 {
   "Title": "台灣聯通台南裕農停車場",
   "Address": "臺南市東區裕農路375號旁",
   "Car": "140",
   "Moto": "0",
   "Money": "",
   "Lat": 22.987197,
   "Lon": 120.229929
 },
 {
   "Title": "崇善停車場",
   "Address": "臺南市東區崇善路913巷6弄口（德高段349地號）",
   "Car": "4",
   "Moto": "0",
   "Money": "",
   "Lat": 22.965755,
   "Lon": 120.233832
 },
 {
   "Title": "TIMES台南樹林街停車場",
   "Address": "臺南市南區大德街178號東側空地(樹林街交叉口)",
   "Car": "65",
   "Moto": "0",
   "Money": "",
   "Lat": 22.986278,
   "Lon": 120.195493
 },
 {
   "Title": "台南航空站停車場",
   "Address": "臺南市南區大同路2段1002號地下室1樓",
   "Car": "108",
   "Moto": "0",
   "Money": "",
   "Lat": 22.947833,
   "Lon": 120.216238
 },
 {
   "Title": "金華停車場",
   "Address": "臺南市南區新興段221、221-7地號(尊南街37巷南側)",
   "Car": "67",
   "Moto": "0",
   "Money": "",
   "Lat": 23.001014,
   "Lon": 120.196202
 },
 {
   "Title": "奇美醫院柳營分院停車場",
   "Address": "臺南市柳營區太康村201號",
   "Car": "296",
   "Moto": "0",
   "Money": "",
   "Lat": 23.290288,
   "Lon": 120.325346
 },
 {
   "Title": "柳營新天地停車場",
   "Address": "臺南市柳營區太康村201-10號",
   "Car": "346",
   "Moto": "304",
   "Money": "",
   "Lat": 23.289913,
   "Lon": 120.329166
 },
 {
   "Title": "尖山埤江南渡假村停車場",
   "Address": "臺南市柳營區旭山里60號",
   "Car": "314",
   "Moto": "0",
   "Money": "",
   "Lat": 23.266749,
   "Lon": 120.392637
 },
 {
   "Title": "嘟嘟房高鐵台南站停車場",
   "Address": "臺南市歸仁區歸仁大道100號",
   "Car": "671",
   "Moto": "433",
   "Money": "",
   "Lat": 22.925635,
   "Lon": 120.286259
 },
 {
   "Title": "龍昇停車場",
   "Address": "臺南市歸仁區武東段130-2地號(歸仁大道近歸仁五路北側)",
   "Car": "98",
   "Moto": "0",
   "Money": "",
   "Lat": 22.928848,
   "Lon": 120.284877
 },
 {
   "Title": "詮營股份有限公司台南（一）收費處",
   "Address": "臺南市歸仁區武東段241地號(高鐵橋下-歸仁八路與歸仁十路間)",
   "Car": "151",
   "Moto": "0",
   "Money": "",
   "Lat": 22.926779,
   "Lon": 120.285249
 },
 {
   "Title": "五都停車場高鐵台南三站",
   "Address": "臺南市歸仁區武當路與高鐵大道交叉口（武東段268地號）",
   "Car": "62",
   "Moto": "0",
   "Money": "",
   "Lat": 22.922966,
   "Lon": 120.28526
 },
 {
   "Title": "馬上停停車場",
   "Address": "臺南市歸仁區台南高鐵特定區歸仁八路與武當路交叉口",
   "Car": "483",
   "Moto": "0",
   "Money": "",
   "Lat": 22.927858,
   "Lon": 120.28277
 },
 {
   "Title": "車寶貝停車場",
   "Address": "臺南市歸仁區台南高鐵特定區歸仁八路與武當路交叉口（武東段261、261-1地號）",
   "Car": "469",
   "Moto": "0",
   "Money": "",
   "Lat": 22.927864,
   "Lon": 120.282613
 },
 {
   "Title": "五都停車場",
   "Address": "臺南市歸仁區高鐵大道與高鐵一路交叉口（武東段366-6~366-12地號）",
   "Car": "189",
   "Moto": "0",
   "Money": "",
   "Lat": 22.923121,
   "Lon": 120.283008
 },
 {
   "Title": "行政院衛生署新營醫院停車場",
   "Address": "臺南市新營區信義街73號",
   "Car": "68",
   "Moto": "128",
   "Money": "",
   "Lat": 23.308881,
   "Lon": 120.313388
 },
 {
   "Title": "七股鹽山停車場",
   "Address": "臺南市七股區鹽埕里66號",
   "Car": "80",
   "Moto": "22",
   "Money": "",
   "Lat": 23.154948,
   "Lon": 120.098966
 },
 {
   "Title": "關子嶺風景特定區白河水庫停車場",
   "Address": "臺南市白河區仙草里1-18號",
   "Car": "20",
   "Moto": "7",
   "Money": "",
   "Lat": 23.333585,
   "Lon": 120.458797
 },
 {
   "Title": "烏山頭水庫風景區停車場",
   "Address": "臺南市官田區嘉南里68-2號",
   "Car": "318",
   "Moto": "5",
   "Money": "",
   "Lat": 23.207948,
   "Lon": 120.363147
 },
 {
   "Title": "虎頭埤風景區附設停車場",
   "Address": "臺南市新化區中興路42巷36號",
   "Car": "43",
   "Moto": "26",
   "Money": "",
   "Lat": 23.027103,
   "Lon": 120.335162
 },
 {
   "Title": "走馬瀨農場停車場",
   "Address": "臺南市大內區二溪里唭子瓦60號",
   "Car": "137",
   "Moto": "10",
   "Money": "",
   "Lat": 23.136501,
   "Lon": 120.429929
 },
 {
   "Title": "曾文水庫風景區停車場",
   "Address": "臺南市楠西區密枝里70號",
   "Car": "152",
   "Moto": "9",
   "Money": "",
   "Lat": 23.210457,
   "Lon": 120.496897
 },
 {
   "Title": "麻豆新樓醫院附設停車場",
   "Address": "臺南市麻豆區苓子林20號",
   "Car": "116",
   "Moto": "361",
   "Money": "",
   "Lat": 23.180225,
   "Lon": 120.232857
 },
 {
   "Title": "文慧停車場",
   "Address": "臺南市關廟區花園一街80號旁(北花段994地號)",
   "Car": "3",
   "Moto": "0",
   "Money": "",
   "Lat": 22.961623,
   "Lon": 120.336446
 },
 {
   "Title": "文化中心森活機車停車場",
   "Address": "臺南市東區臺南市東區中華東路3段380巷及452巷8弄交叉口",
   "Car": "0",
   "Moto": "389",
   "Money": "計次10元/時/跨日另計費",
   "Lat": 22.98133,
   "Lon": 120.2224227
 },
 {
   "Title": "崇善路龍山停車場",
   "Address": "臺南市東區臺南市東區崇善路25巷內",
   "Car": "144",
   "Moto": "23",
   "Money": "小型車為每半小時/10元(身障者半價優惠)，前30分鐘內免費，當日最高收費200元，月票2，500元(身障者優惠價為1，500元)，機車暫不收費。另提供敦親睦鄰優惠方案，優惠龍山里與德光里，里民月票優惠價為1，750元(7折)，住民或工作者月票優惠價為2，125元(85折)。",
   "Lat": 22.98133,
   "Lon": 120.2224227
 },
 {
   "Title": "海安路地下停車場",
   "Address": "臺南市中西區海安路一段188號",
   "Car": "891",
   "Moto": "0",
   "Money": "20元/時",
   "Lat": 22.991171,
   "Lon": 120.195711
 },
 {
   "Title": "明年的旅程",
   "Address": "我",
   "Car": "愛",
   "Moto": "念",
   "Money": "慈",
   "Lat": 7.719279,
   "Lon": 134.613665
 }
]